City_ID,City,Lat,Lng,Max Temp,Humidity,Cloudiness,Wind Speed,Country,Date
0,kodiak,57.79,-152.4072,-2.27,93,100,2.57,US,1674097955
1,pacific grove,36.6177,-121.9166,11.17,85,0,0.89,US,1674097956
2,hobart,-42.8794,147.3294,18.48,55,75,7.72,AU,1674097932
3,clyde river,70.4692,-68.5914,-31.69,97,100,0.82,CA,1674097958
4,yushu,44.8,126.5333,-12.47,76,93,3.38,CN,1674097958
5,mataura,-46.1927,168.8643,28.09,27,9,1.33,NZ,1674097959
6,mporokoso,-9.3727,30.125,15.85,96,100,1.78,ZM,1674097959
7,new norfolk,-42.7826,147.0587,18.29,35,18,3.25,AU,1674097960
8,paris,48.8534,2.3488,2.1,94,100,2.57,FR,1674097878
9,pala,9.3642,14.9046,20.07,27,53,2.4,TD,1674097960
10,imeni zhelyabova,58.9544,36.5956,1.34,98,100,7.56,RU,1674097961
11,mora,11.0461,14.1401,18.26,32,2,1.75,CM,1674097962
12,ushuaia,-54.8,-68.3,9.89,94,10,1.71,AR,1674097962
13,bontang,0.1333,117.5,28.61,69,44,2.04,ID,1674097963
14,nuuk,64.1835,-51.7216,-8.4,78,100,4.47,GL,1674097963
15,poltavka,54.3663,71.7632,-14.73,89,95,3.73,RU,1674097963
16,nikolskoye,59.7035,30.7861,1.0,98,100,5.12,RU,1674097964
17,verkhnyaya toyma,62.2349,44.9985,-2.19,87,100,4.76,RU,1674097964
18,albany,42.6001,-73.9662,4.65,82,100,1.34,US,1674097965
19,valparaiso,-33.0393,-71.6273,17.49,100,0,1.03,CL,1674097965
20,butaritari,3.0707,172.7902,26.84,80,79,6.96,KI,1674097966
21,coihaique,-45.5752,-72.0662,16.34,67,0,1.03,CL,1674097966
22,belmonte,-15.8631,-38.8828,23.95,86,29,1.01,BR,1674097967
23,bethel,41.3712,-73.414,7.05,72,75,3.6,US,1674097967
24,ballina,-28.8667,153.5667,30.56,59,0,6.43,AU,1674097968
25,eina,60.6295,10.5993,-1.94,97,99,1.01,NO,1674097968
26,mar del plata,-38.0023,-57.5575,22.19,90,100,8.05,AR,1674097969
27,salsk,46.4725,41.5428,0.34,92,85,5.52,RU,1674097969
28,mount isa,-20.7333,139.5,34.87,28,5,4.63,AU,1674097970
29,puerto ayora,-0.7393,-90.3518,24.19,94,53,2.25,EC,1674097970
30,villazon,-22.0866,-65.5942,11.13,60,98,2.99,BO,1674097971
31,armidale,-30.5167,151.65,21.49,56,88,3.46,AU,1674097971
32,port elizabeth,-33.918,25.5701,24.06,90,97,1.79,ZA,1674097972
33,umaria,23.5333,80.8333,13.32,32,0,1.67,IN,1674097972
34,sciacca,37.5082,13.0881,8.91,70,81,8.31,IT,1674097973
35,seymchan,62.8833,152.4333,-30.36,90,100,2.9,RU,1674097973
36,portland,45.5234,-122.6762,5.97,93,75,3.13,US,1674097429
37,victoria,22.2855,114.1577,19.41,68,0,1.79,HK,1674097803
38,avarua,-21.2078,-159.775,24.03,94,100,6.17,CK,1674097974
39,bredasdorp,-34.5322,20.0403,19.38,88,6,2.72,ZA,1674097975
40,ponta do sol,32.6667,-17.1,15.4,68,54,3.86,PT,1674097975
41,ustka,54.5805,16.8619,-1.31,68,100,4.6,PL,1674097976
42,cape town,-33.9258,18.4232,22.99,81,78,1.43,ZA,1674097976
43,arlit,18.7369,7.3853,15.84,12,62,2.79,NE,1674097977
44,mehamn,71.0357,27.8492,-0.05,80,100,5.66,NO,1674097977
45,krasnoselkup,65.7,82.4667,-25.84,96,86,4.63,RU,1674097978
46,moranbah,-22.0016,148.0466,29.04,48,3,6.92,AU,1674097868
47,ixtapa,20.7,-105.2,21.57,73,0,0.0,MX,1674097979
48,alofi,-19.0595,-169.9187,28.94,79,75,3.09,NU,1674097979
49,upernavik,72.7868,-56.1549,-27.87,72,100,2.19,GL,1674097979
50,neftcala,39.3742,49.2472,6.41,85,89,2.74,AZ,1674097980
51,aksay,47.26,39.87,2.36,69,94,4.02,RU,1674097980
52,los llanos de aridane,28.6585,-17.9182,15.86,82,75,7.72,ES,1674097981
53,ucluelet,48.9329,-125.5528,3.38,91,7,3.7,CA,1674097981
54,marienburg,54.0359,19.0266,2.8,85,100,2.03,PL,1674097982
55,cairns,-16.9167,145.7667,27.84,83,75,7.2,AU,1674097898
56,ilulissat,69.2167,-51.1,-35.16,65,0,2.27,GL,1674097983
57,khatanga,71.9667,102.5,-36.28,100,16,2.8,RU,1674097984
58,puerto escondido,15.85,-97.0667,28.46,69,40,2.57,MX,1674097750
59,busselton,-33.65,115.3333,27.26,37,0,2.87,AU,1674097985
60,sioux lookout,50.1001,-91.917,-12.86,96,98,2.84,CA,1674097986
61,port pirie,-33.1833,138.0167,24.85,20,0,4.87,AU,1674097986
62,rikitea,-23.1203,-134.9692,25.57,68,100,0.33,PF,1674097987
63,grand gaube,-20.0064,57.6608,26.32,82,97,3.58,MU,1674097988
64,fortuna,40.5982,-124.1573,5.55,96,100,2.57,US,1674097989
65,palmer,42.1584,-72.3287,6.4,77,75,4.12,US,1674097989
66,sokode,8.9833,1.1333,21.96,24,1,1.58,TG,1674097990
67,cabo san lucas,22.8909,-109.9124,20.28,74,40,2.84,MX,1674097991
68,vadso,70.0744,29.7487,1.09,80,100,10.8,NO,1674097991
69,qasigiannguit,68.8193,-51.1922,-35.24,65,0,1.71,GL,1674097992
70,ribeira grande,38.5167,-28.7,13.21,83,16,0.89,PT,1674097992
71,castro,-24.7911,-50.0119,16.54,92,100,1.21,BR,1674097984
72,baykit,61.67,96.37,-42.52,99,77,0.7,RU,1674097993
73,chokurdakh,70.6333,147.9167,-37.99,100,31,2.35,RU,1674097994
74,tasiilaq,65.6145,-37.6368,-12.91,82,100,1.7,GL,1674097994
75,hermanus,-34.4187,19.2345,19.89,93,11,3.82,ZA,1674097745
76,bluff,-46.6,168.3333,18.23,72,72,6.18,NZ,1674097995
77,akyab,20.15,92.9,20.7,46,2,3.52,MM,1674097996
78,lethem,3.3803,-59.7968,24.9,64,68,4.22,GY,1674097997
79,wajima,37.4,136.9,7.0,63,12,5.28,JP,1674097997
80,deputatskiy,69.3,139.9,-35.89,100,98,0.6,RU,1674097998
81,punta arenas,-53.15,-70.9167,13.06,76,0,7.2,CL,1674097990
82,igrim,63.1906,64.4162,-19.76,100,82,1.67,RU,1674097999
83,bambous virieux,-20.3428,57.7575,26.23,87,99,6.63,MU,1674097999
84,port macquarie,-31.4333,152.9167,26.61,77,99,4.51,AU,1674097990
85,yakeshi,49.2833,120.7333,-22.27,95,100,0.88,CN,1674098001
86,severo-kurilsk,50.6789,156.125,-8.74,62,100,12.99,RU,1674098001
87,hasaki,35.7333,140.8333,9.05,60,93,5.75,JP,1674098002
88,port alfred,-33.5906,26.891,22.32,90,95,1.23,ZA,1674097995
89,kahului,20.8947,-156.47,28.01,58,20,4.12,US,1674098003
90,matara,5.9485,80.5353,24.58,63,97,5.77,LK,1674098004
91,norman wells,65.282,-126.8329,-23.27,99,95,1.47,CA,1674098005
92,hithadhoo,-0.6,73.0833,27.59,74,9,4.7,MV,1674098005
93,saldanha,-33.0117,17.9442,18.43,92,92,3.45,ZA,1674098006
94,kefamenanu,-9.4467,124.4781,28.72,65,100,1.57,ID,1674098007
95,rio gallegos,-51.6226,-69.2181,16.34,58,0,1.38,AR,1674098007
96,vila velha,-20.3297,-40.2925,23.97,88,40,1.54,BR,1674097992
97,sao filipe,14.8961,-24.4956,24.01,64,3,5.5,CV,1674098008
98,korla,41.7597,86.1469,-13.55,81,7,0.57,CN,1674097967
99,ancud,-41.8697,-73.8203,12.87,84,7,0.59,CL,1674098009
100,airai,-8.9266,125.4092,21.89,71,100,1.93,TL,1674098010
101,hilo,19.7297,-155.09,22.85,93,100,5.14,US,1674098010
102,ojinaga,29.5667,-104.4167,11.53,30,0,6.69,MX,1674098011
103,yellowknife,62.456,-114.3525,-4.71,100,100,5.66,CA,1674097972
104,provideniya,64.3833,-173.3,-23.94,58,20,3.0,RU,1674098012
105,conde,-7.2597,-34.9075,23.7,100,75,1.54,BR,1674098012
106,kapaa,22.0752,-159.319,26.18,81,100,3.6,US,1674098012
107,cap-aux-meules,47.3821,-61.8597,0.16,97,92,4.02,CA,1674097809
108,asau,46.4333,26.4,5.71,85,29,1.85,RO,1674098013
109,arraial do cabo,-22.9661,-42.0278,23.43,90,100,6.26,BR,1674097749
110,dawei,14.0833,98.2,28.06,44,85,2.35,MM,1674098014
111,chuy,-33.6971,-53.4616,22.26,71,100,4.78,UY,1674098015
112,padang,-0.9492,100.3543,28.03,80,100,0.61,ID,1674098015
113,ormara,25.2088,64.6357,20.17,57,83,2.66,PK,1674098016
114,qaanaaq,77.484,-69.3632,-28.27,97,100,2.46,GL,1674098016
115,pierre,44.3683,-100.351,-5.08,90,100,4.02,US,1674097808
116,bonthe,7.5264,-12.505,23.65,87,4,1.7,SL,1674098017
117,narsaq,60.9167,-46.05,1.12,90,100,4.47,GL,1674098018
118,yeppoon,-23.1333,150.7333,28.88,71,16,6.64,AU,1674098018
119,pangody,65.85,74.4859,-18.52,97,100,2.65,RU,1674098019
120,contamana,-7.3333,-75.0167,22.9,97,100,1.04,PE,1674098019
121,mimongo,-1.6195,11.6068,20.44,98,97,0.61,GA,1674098020
122,necochea,-38.5473,-58.7368,20.26,84,36,7.03,AR,1674098020
123,jamestown,42.097,-79.2353,1.8,72,100,1.54,US,1674097998
124,vaini,-21.2,-175.2,31.09,74,75,4.63,TO,1674098021
125,chabahar,25.2919,60.643,20.91,72,78,3.04,IR,1674098022
126,sinnamary,5.3833,-52.95,24.07,87,91,3.21,GF,1674098022
127,tuatapere,-46.1333,167.6833,23.12,49,43,3.62,NZ,1674098023
128,landeck,47.1301,10.5636,-5.77,97,100,1.76,AT,1674098023
129,kirakira,-10.4544,161.9205,28.71,74,98,4.15,SB,1674098024
130,mathbaria,22.2876,89.9593,19.48,39,0,3.44,BD,1674098024
131,maturin,9.75,-63.1767,20.23,94,76,2.2,VE,1674098025
132,narok,-1.0783,35.8601,12.34,67,46,1.03,KE,1674098025
133,vardo,70.3705,31.1107,0.99,80,100,12.35,NO,1674098026
134,hamilton,39.1834,-84.5333,7.35,92,100,3.6,US,1674098026
135,itarema,-2.9248,-39.9167,24.92,85,100,4.07,BR,1674097830
136,atuona,-9.8,-139.0333,26.09,77,60,8.93,PF,1674098027
137,kachiry,53.0675,76.1036,-15.45,92,71,3.97,KZ,1674098027
138,sorland,67.667,12.6934,1.92,92,100,5.86,NO,1674098028
139,port lincoln,-34.7333,135.8667,18.18,51,83,6.82,AU,1674098028
140,yarim,14.298,44.3779,7.67,57,33,1.85,YE,1674098029
141,dunedin,-45.8742,170.5036,21.56,65,25,3.58,NZ,1674097862
142,talnakh,69.4865,88.3972,-33.74,80,82,1.47,RU,1674098029
143,dikson,73.5069,80.5464,-30.06,83,100,2.18,RU,1674098030
144,pangnirtung,66.1451,-65.7125,-27.54,63,2,2.68,CA,1674097879
145,flinders,-34.5833,150.8552,19.47,74,100,6.66,AU,1674098031
146,sawtell,-30.3833,153.1,29.55,61,75,7.2,AU,1674098031
147,champerico,14.3,-91.9167,25.13,67,87,2.16,GT,1674098031
148,san quintin,30.4833,-115.95,13.23,64,100,3.01,MX,1674098032
149,gijon,43.5357,-5.6615,7.67,85,100,4.02,ES,1674097829
150,mogadishu,2.0371,45.3438,24.29,84,100,8.04,SO,1674098021
151,lagoa,39.05,-27.9833,13.11,71,0,2.67,PT,1674098033
152,ust-kulom,61.6864,53.6902,-6.15,89,100,3.15,RU,1674098034
153,mahebourg,-20.4081,57.7,26.25,86,99,6.76,MU,1674098036
154,adre,13.4667,22.2,17.48,21,75,4.41,TD,1674098036
155,saint-pierre,-21.3393,55.4781,28.65,88,100,2.06,RE,1674098037
156,thompson,55.7435,-97.8558,-9.91,85,100,2.06,CA,1674098037
157,putina,-15.4667,-69.4333,6.97,77,93,6.36,PE,1674098038
158,te anau,-45.4167,167.7167,25.76,29,48,3.17,NZ,1674097811
159,yashan,22.1975,109.9419,13.86,55,20,3.05,CN,1674098038
160,saint-philippe,-21.3585,55.7679,24.77,89,90,5.9,RE,1674098039
161,yermekeyevo,54.0761,53.6712,-18.79,78,0,2.15,RU,1674098039
162,saquisili,-0.8333,-78.6667,10.29,96,100,0.05,EC,1674098040
163,benicarlo,40.4165,0.4271,7.91,49,0,14.4,ES,1674098041
164,guerrero negro,27.9769,-114.0611,14.43,60,99,4.18,MX,1674097950
165,barrow,71.2906,-156.7887,-18.99,78,100,8.75,US,1674098041
166,kupino,54.3663,77.2981,-15.79,97,37,3.9,RU,1674098042
167,wilmington,34.2257,-77.9447,14.36,89,0,0.45,US,1674097761
168,mahibadhoo,3.7833,72.9667,26.81,80,82,7.37,MV,1674098043
169,curuca,-0.7289,-47.8481,21.45,96,100,0.94,BR,1674098044
170,pauini,-7.7136,-66.9764,21.84,99,100,0.97,BR,1674098045
171,laguna,38.421,-121.4238,11.27,77,100,6.17,US,1674098045
172,east london,-33.0153,27.9116,23.88,77,87,2.08,ZA,1674098046
173,qaqortoq,60.7167,-46.0333,-3.22,89,100,4.53,GL,1674098046
174,vryheid,-27.7695,30.7917,16.5,81,88,1.91,ZA,1674098047
175,kyzyl,51.7,94.45,-20.58,97,100,0.43,RU,1674098048
176,keti bandar,24.1447,67.4497,15.96,27,87,6.46,PK,1674098048
177,karratha,-20.7377,116.8463,28.18,68,98,3.76,AU,1674098049
178,souillac,-20.5167,57.5167,25.92,87,98,6.21,MU,1674098018
179,bombay,19.0144,72.8479,21.99,68,0,1.54,IN,1674097846
180,sept-iles,50.2001,-66.3821,0.59,80,100,5.14,CA,1674098050
181,huzhou,30.8703,120.0933,7.39,39,5,1.03,CN,1674098051
182,akdepe,42.0551,59.3788,-6.73,55,26,3.35,TM,1674098052
183,auki,-8.7676,160.7034,29.68,67,66,5.08,SB,1674098052
184,tautira,-17.7333,-149.15,27.15,75,22,7.63,PF,1674098053
185,escanaba,45.7453,-87.0646,0.17,92,100,1.54,US,1674098054
186,lebu,-37.6167,-73.65,13.08,88,46,3.18,CL,1674098045
187,skutec,49.8435,15.9966,1.49,100,100,3.42,CZ,1674098055
188,lata,40.1629,-8.3327,3.37,89,30,0.54,PT,1674098056
189,kindersley,51.4668,-109.1682,-7.44,99,94,4.0,CA,1674098057
190,zyryanka,65.75,150.85,-29.38,96,100,5.42,RU,1674098058
191,leshukonskoye,64.8989,45.7622,-3.1,95,100,3.78,RU,1674098059
192,olga,43.7444,135.2892,-5.85,78,100,1.64,RU,1674098059
193,coihueco,-36.6167,-71.8333,16.15,52,0,0.82,CL,1674098060
194,balkanabat,39.5108,54.3671,0.43,52,28,1.91,TM,1674098061
195,nishihara,26.1842,127.7558,18.81,55,20,4.12,JP,1674098062
196,abu dhabi,24.4667,54.3667,20.01,67,20,5.66,AE,1674098063
197,yairipok,24.6667,94.0667,13.42,40,0,0.66,IN,1674098064
198,mandalgovi,45.7625,106.2708,-20.8,66,3,5.04,MN,1674098064
199,fare,-16.7,-151.0167,27.55,69,4,6.03,PF,1674098065
200,friesach,46.9553,14.4058,2.33,87,100,2.82,AT,1674098065
201,kushiro,42.975,144.3747,-6.27,63,48,0.75,JP,1674098066
202,longyearbyen,78.2186,15.6401,-7.09,68,0,4.63,SJ,1674098067
203,abashiri,44.0213,144.2697,-6.14,62,100,1.58,JP,1674098067
204,havre-saint-pierre,50.2334,-63.5986,1.2,93,100,1.54,CA,1674098068
205,carnarvon,-24.8667,113.6333,31.64,52,0,3.51,AU,1674098069
206,port-gentil,-0.7193,8.7815,27.39,76,96,3.79,GA,1674098069
207,bonfim,3.0833,-59.95,25.76,61,70,2.35,BR,1674098070
208,hami,42.8,93.45,-9.19,49,0,3.37,CN,1674098070
209,mildura,-34.2,142.15,22.26,39,0,7.46,AU,1674098071
210,ozuluama,21.6667,-97.85,19.75,86,55,1.66,MX,1674098072
211,kumluca,36.3703,30.2869,12.85,68,6,2.88,TR,1674098072
212,rantauprapat,2.1,99.8333,26.92,74,100,0.33,ID,1674098073
213,esperance,-33.8667,121.9,21.58,47,100,6.08,AU,1674098038
214,saint george,37.1041,-113.5841,4.58,60,0,2.06,US,1674097998
215,garden city,42.3256,-83.331,4.0,77,100,3.09,US,1674097789
216,katsuura,35.1333,140.3,8.3,73,100,6.61,JP,1674098074
217,simi,9.5667,-12.35,20.66,73,30,0.3,SL,1674098074
218,yelan,50.949,43.7378,-7.35,83,16,5.46,RU,1674098023
219,yagodnoye,62.55,149.6667,-29.48,96,100,1.47,RU,1674098075
220,pevek,69.7008,170.3133,-29.43,96,100,5.31,RU,1674098076
221,termoli,41.9888,14.9895,8.77,73,67,3.76,IT,1674098076
222,el alto,-4.2714,-81.2147,20.59,76,88,4.68,PE,1674098077
223,wuda,39.4994,106.7117,-8.5,53,6,8.27,CN,1674098077
224,saint-francois,46.4154,3.9054,-0.31,93,100,2.57,FR,1674098078
225,labuhan,-6.8844,112.2051,26.39,83,100,3.8,ID,1674098078
226,nampula,-15.1165,39.2666,20.23,97,100,0.9,MZ,1674098079
227,tuktoyaktuk,69.4541,-133.0374,-16.18,96,100,0.87,CA,1674098079
228,tripoli,32.8752,13.1875,14.98,50,0,5.7,LY,1674098080
229,ahipara,-35.1667,173.1667,22.18,61,12,3.94,NZ,1674098080
230,codrington,-38.2667,141.9667,17.36,45,22,7.43,AU,1674098081
231,srednekolymsk,67.45,153.6833,-33.17,99,100,1.57,RU,1674098014
232,saskylakh,71.9167,114.0833,-39.0,100,37,0.28,RU,1674098082
233,berlevag,70.8578,29.0864,-0.03,80,100,8.75,NO,1674098082
234,los alamos,35.8881,-106.307,-2.42,73,0,0.0,US,1674098082
235,shimoda,34.6667,138.95,6.17,72,98,5.0,JP,1674098083
236,camacha,33.0833,-16.3333,13.68,72,40,6.17,PT,1674098083
237,kasongo-lunda,-6.4667,16.8167,20.55,98,100,0.61,CD,1674098084
238,ndele,8.4109,20.6473,20.24,30,4,1.84,CF,1674098084
239,makakilo city,21.3469,-158.0858,27.18,61,0,3.6,US,1674098085
240,nanortalik,60.1432,-45.2371,-2.43,89,100,6.92,GL,1674098085
241,cabedelo,-6.9811,-34.8339,24.37,83,53,4.83,BR,1674097789
242,manono,-7.3,27.4167,18.85,97,100,0.81,CD,1674098086
243,georgetown,5.4112,100.3354,28.96,61,20,4.63,MY,1674097850
244,hit,33.6416,42.8251,10.84,78,0,4.08,IQ,1674098087
245,dryden,49.7833,-92.7503,-13.25,97,100,2.03,CA,1674098087
246,cristalina,-16.7686,-47.6136,16.48,86,31,0.18,BR,1674098087
247,cangzhou,38.3167,116.8667,3.27,30,0,3.12,CN,1674098088
248,ceres,37.5949,-120.9577,11.0,77,75,2.06,US,1674097956
249,bilma,18.6853,12.9164,15.49,21,22,1.99,NE,1674098089
250,vikulovo,56.8167,70.6107,-14.95,97,75,2.06,RU,1674098089
251,nome,64.5011,-165.4064,-22.96,70,0,1.54,US,1674098090
252,kuala terengganu,5.3302,103.1408,25.71,78,100,1.7,MY,1674098090
253,snezhnogorsk,69.1933,33.2531,-1.12,92,100,5.23,RU,1674098091
254,ponta delgada,37.7333,-25.6667,9.4,81,20,3.09,PT,1674098091
255,cayenne,4.9333,-52.3333,23.02,100,75,2.57,GF,1674097827
256,kismayo,-0.3582,42.5454,24.39,83,99,5.89,SO,1674098093
257,torbay,47.6666,-52.7314,4.21,93,100,2.68,CA,1674098095
258,obigarm,38.7173,69.7088,-6.49,75,100,2.98,TJ,1674098095
259,port hardy,50.6996,-127.4199,4.37,84,81,2.29,CA,1674098097
260,gamba,-2.65,10.0,24.83,86,100,1.93,GA,1674098100
261,jinchang,38.4953,102.1739,-6.22,32,3,2.57,CN,1674098100
262,grindavik,63.8424,-22.4338,-5.74,79,0,4.12,IS,1674098101
263,yashalta,46.3395,42.2762,-0.09,94,76,5.7,RU,1674098101
264,namatanai,-3.6667,152.4333,28.48,74,93,3.38,PG,1674098102
265,ranong,9.9658,98.6348,27.93,61,87,3.48,TH,1674098103
266,buala,-8.145,159.5921,29.45,72,95,5.1,SB,1674098105
267,chernaya kholunitsa,58.8511,51.7154,-11.8,94,73,3.55,RU,1674098105
268,terre-de-bas,15.8501,-61.6442,21.73,70,41,7.96,GP,1674098106
269,prosperous,53.2903,-6.7539,2.82,92,100,2.53,IE,1674098106
270,luderitz,-26.6481,15.1594,18.4,85,4,4.24,NA,1674098045
271,salalah,17.0151,54.0924,24.05,46,0,5.66,OM,1674098108
272,asfi,32.2994,-9.2372,11.64,79,5,8.05,MA,1674098108
273,kaitangata,-46.2817,169.8464,20.14,69,13,3.65,NZ,1674098046
274,port blair,11.6667,92.75,26.02,73,100,1.03,IN,1674098030
275,ahuimanu,21.4447,-157.8378,27.84,66,75,3.6,US,1674098110
276,pirassununga,-21.9961,-47.4258,19.87,95,95,1.83,BR,1674098110
277,methoni,36.8197,21.7049,17.34,77,6,8.11,GR,1674098111
278,husavik,66.0449,-17.3389,-3.84,77,100,4.56,IS,1674098052
279,nueva loja,0.0847,-76.8828,20.66,99,63,0.71,EC,1674098081
280,itoman,26.1247,127.6694,19.21,55,20,4.12,JP,1674098112
281,horta,38.5333,-28.6333,12.79,83,19,0.89,PT,1674098113
282,makabe,36.2667,140.1,8.79,39,58,0.48,JP,1674098114
283,suntar,62.1444,117.6319,-49.1,98,94,0.34,RU,1674098114
284,geraldton,-28.7667,114.6,37.23,30,0,7.72,AU,1674098115
285,faanui,-16.4833,-151.75,27.26,71,10,5.72,PF,1674098116
286,aklavik,68.2191,-135.0107,-21.67,100,100,1.56,CA,1674098117
287,robertsport,6.7533,-11.3686,25.33,87,100,3.07,LR,1674098117
288,ust-charyshskaya pristan,52.3934,83.6635,-11.83,83,100,6.95,RU,1674098119
289,itaituba,-4.2761,-55.9836,21.44,99,100,1.03,BR,1674098120
290,cidreira,-30.1811,-50.2056,23.25,91,97,6.29,BR,1674097876
291,olafsvik,64.8945,-23.7142,-2.72,75,99,7.28,IS,1674098121
292,sala,34.0389,-6.8166,10.91,100,75,1.54,MA,1674098122
293,kenai,60.5544,-151.2583,-5.48,89,100,3.09,US,1674098113
294,viedma,-40.8135,-62.9967,21.12,83,64,6.28,AR,1674098123
295,jutai,-5.1833,-68.9,22.35,99,100,0.96,BR,1674098124
296,marzuq,14.4,46.4667,12.59,71,22,1.66,YE,1674098125
297,mantua,45.1667,10.7833,4.58,92,100,0.45,IT,1674098125
298,sterling,39.0062,-77.4286,7.73,75,0,3.58,US,1674098032
299,dubbo,-32.25,148.6167,26.07,69,40,4.12,AU,1674098126
300,mingguang,32.7802,117.9638,7.61,35,0,4.75,CN,1674098127
301,coahuayana,18.7333,-103.6833,18.8,87,80,1.39,MX,1674098025
302,taozhuang,34.85,117.3333,5.37,42,63,3.42,CN,1674098128
303,grong,64.4654,12.3149,-4.4,97,99,1.34,NO,1674098129
304,yerbogachen,61.2767,108.0108,-37.92,96,100,0.86,RU,1674098129
305,pisco,-13.7,-76.2167,22.03,73,0,2.57,PE,1674098098
306,vostok,46.4856,135.8833,-12.14,89,100,1.56,RU,1674098130
307,aylesbury,51.8167,-0.8146,-0.24,94,37,2.47,GB,1674098089
308,tazovskiy,67.4667,78.7,-23.8,97,100,4.23,RU,1674098131
309,san antonio,29.4241,-98.4936,17.86,32,0,3.09,US,1674097738
310,erenhot,43.6475,111.9767,-14.52,59,68,7.75,CN,1674098131
311,xapuri,-10.6517,-68.5044,21.88,99,100,1.89,BR,1674098132
312,dingle,10.9995,122.6711,27.53,80,74,7.08,PH,1674098132
313,palmeira,-25.4294,-50.0064,17.42,96,100,1.79,BR,1674098133
314,shiyan,32.6475,110.7781,8.01,29,100,1.94,CN,1674098133
315,peace river,56.2501,-117.286,-7.05,90,100,2.28,CA,1674098134
316,nuristan,35.3,70.8333,-16.52,77,53,4.49,AF,1674098134
317,oliveira,-20.6964,-44.8272,17.46,93,18,1.71,BR,1674098135
318,melfort,52.8667,-104.6177,-12.3,97,89,2.35,CA,1674098128
319,yulara,-25.2406,130.9889,30.02,30,69,4.95,AU,1674098105
320,quatre cocos,-20.2078,57.7625,26.16,88,98,6.49,MU,1674098136
321,crossfield,51.4334,-114.0353,-6.34,85,73,2.98,CA,1674098120
322,sambava,-14.2667,50.1667,24.7,92,100,13.51,MG,1674098137
323,tilichiki,60.4667,166.1,-23.8,89,100,4.12,RU,1674098137
324,cattolica,43.9575,12.7376,4.47,94,75,3.13,IT,1674098138
325,kavieng,-2.5744,150.7967,28.92,71,62,4.82,PG,1674098138
326,kurilsk,45.2333,147.8833,-5.46,61,100,7.1,RU,1674098139
327,san cristobal,7.7669,-72.225,17.96,87,19,0.69,VE,1674098033
328,tura,25.5198,90.2201,17.5,48,0,0.45,IN,1674098139
329,roma,43.2128,-75.4557,3.31,98,100,2.57,US,1674098140
330,portree,57.4129,-6.1942,-0.82,94,65,3.33,GB,1674098140
331,yumen,40.2833,97.2,-11.33,63,1,5.47,CN,1674098141
332,gat,31.61,34.7642,13.55,100,0,0.96,IL,1674098141
333,iqaluit,63.7506,-68.5145,-29.06,68,14,1.34,CA,1674098142
334,alyangula,-13.8483,136.4192,28.33,73,97,4.92,AU,1674098142
335,basco,20.4487,121.9702,23.45,68,85,9.23,PH,1674098143
336,broken hill,-31.95,141.4333,22.47,21,0,8.54,AU,1674098143
337,belaya gora,68.5333,146.4167,-37.4,100,98,1.82,RU,1674098144
338,byron bay,-28.65,153.6167,30.52,54,0,5.63,AU,1674098144
339,naantali,60.4674,22.0243,1.15,100,100,1.54,FI,1674098144
340,baoqing,46.3317,132.2111,-8.14,83,100,3.79,CN,1674098145
341,puri,19.8,85.85,20.29,81,3,2.76,IN,1674098145
342,neenah,44.1858,-88.4626,0.08,90,100,4.63,US,1674098146
343,jagdispur,25.4833,84.4167,12.27,46,0,1.28,IN,1674098146
344,saint anthony,45.0205,-93.218,0.53,84,100,4.63,US,1674098147
345,wonthaggi,-38.6044,145.5913,18.23,51,46,5.94,AU,1674098147
346,tiksi,71.6872,128.8694,-34.26,100,92,0.72,RU,1674098006
347,pangoa,-12.1167,-73.0,20.35,99,100,0.7,PE,1674098148
348,sola,-13.8833,167.55,25.96,85,100,13.55,VU,1674098149
349,hualmay,-11.0964,-77.6139,21.45,76,99,3.22,PE,1674098149
350,boke,10.9409,-14.2967,19.52,87,0,0.57,GN,1674098150
351,nemuro,43.3236,145.575,-5.77,61,81,3.27,JP,1674098150
352,corrente,-3.7367,-43.3394,21.72,99,100,0.36,BR,1674098151
353,shubarshi,48.5872,57.1869,-12.5,82,71,3.13,KZ,1674098151
354,am timan,11.0297,20.2827,21.76,24,93,2.78,TD,1674098152
355,paamiut,61.994,-49.6678,-2.64,93,100,3.77,GL,1674098152
356,leningradskiy,69.3833,178.4167,-29.48,98,100,10.31,RU,1674098153
357,cockburn town,21.4612,-71.1419,24.68,60,5,6.6,TC,1674098153
358,bubaque,11.2833,-15.8333,25.24,66,1,2.74,GW,1674098154
359,antofagasta,-23.65,-70.4,19.6,82,39,2.51,CL,1674098154
360,honavar,14.2833,74.45,22.77,40,10,2.16,IN,1674098155
361,atambua,-9.1061,124.8925,27.8,70,100,2.88,ID,1674098155
362,sukhumi,43.0033,41.0153,9.86,51,12,2.43,GE,1674098156
363,mongomo,1.6274,11.3135,19.36,94,94,0.9,GQ,1674098156
364,kang,-23.6752,22.7876,21.64,61,13,3.56,BW,1674098157
365,coquimbo,-29.9533,-71.3436,16.85,88,100,3.09,CL,1674097997
366,vao,-22.6667,167.4833,24.3,70,75,10.63,NC,1674098158
367,kuminskiy,58.6667,66.5667,-13.55,96,60,2.19,RU,1674098159
368,darhan,49.4867,105.9228,-24.61,87,14,2.68,MN,1674098159
369,lincoln,40.8,-96.667,0.72,96,100,2.24,US,1674097958
370,caravelas,-17.7125,-39.2481,23.27,91,0,1.02,BR,1674097919
371,tinskoy,56.1525,96.9161,-25.74,95,100,1.18,RU,1674098160
372,zhigansk,66.7697,123.3711,-43.01,95,90,5.86,RU,1674098161
373,hobyo,5.3505,48.5268,24.39,77,88,8.17,SO,1674098161
374,zelenogorskiy,55.0333,87.0,-13.88,95,100,4.0,RU,1674098162
375,yarmouth,41.7057,-70.2286,6.67,78,0,7.15,US,1674098162
376,zeya,53.75,127.2667,-29.67,80,100,2.48,RU,1674098163
377,abalak,58.1286,68.5944,-15.02,97,77,2.1,RU,1674098164
378,kalabo,-14.97,22.6814,18.6,96,100,2.1,ZM,1674098165
379,pryluky,50.5932,32.3876,4.84,98,86,3.69,UA,1674098166
380,crateus,-5.1783,-40.6775,23.24,78,96,0.98,BR,1674098166
381,aksu,41.1231,80.2644,-17.36,86,4,1.54,CN,1674098168
382,macia,-25.0269,33.0989,22.48,89,96,1.53,MZ,1674098170
383,bara,10.3744,10.7288,17.88,35,18,2.99,NG,1674098170
384,talavera,15.6167,120.9333,29.63,53,21,3.75,PH,1674098171
385,nyrob,60.733,56.7202,-10.36,96,98,3.2,RU,1674098172
386,muana,-1.5283,-49.2167,22.03,96,100,1.08,BR,1674098172
387,jiaohe,43.7286,127.3447,-6.85,86,100,2.84,CN,1674098173
388,kavaratti,10.5669,72.642,27.03,70,80,4.68,IN,1674098075
389,bandarbeyla,9.4942,50.8122,23.42,74,38,7.98,SO,1674098173
390,ostrovnoy,68.0531,39.5131,-1.24,89,100,7.81,RU,1674098174
391,muriae,-21.1306,-42.3664,21.47,98,53,0.56,BR,1674098175
392,lasa,46.6166,10.7002,-0.51,92,100,3.18,IT,1674098175
393,mitsamiouli,-11.3847,43.2844,27.22,74,100,3.89,KM,1674098176
394,yaan,7.3833,8.5667,24.23,22,80,1.78,NG,1674098177
395,antalaha,-14.9003,50.2788,24.53,94,100,10.89,MG,1674098054
396,thinadhoo,0.5333,72.9333,27.79,74,72,4.75,MV,1674098178
397,khanpur,28.6453,70.6567,11.32,33,84,4.12,PK,1674098178
398,sitka,57.0531,-135.33,4.94,81,100,6.17,US,1674098052
399,bradford,53.7939,-1.7521,0.29,87,36,2.68,GB,1674098116
400,nagai,38.1036,140.035,1.34,61,10,0.07,JP,1674098180
401,xuanzhou,30.9525,118.7553,8.1,32,3,1.44,CN,1674098180
402,sao jose da coroa grande,-8.8978,-35.1478,24.84,86,28,3.3,BR,1674098181
403,komsomolskiy,40.4272,71.7189,-9.6,79,65,3.09,UZ,1674098182
404,melito di porto salvo,37.9222,15.7714,14.19,80,11,5.04,IT,1674098183
405,lorengau,-2.0226,147.2712,28.5,73,70,4.22,PG,1674098117
406,mayor pablo lagerenza,-19.9309,-60.7718,24.24,75,13,1.75,PY,1674098146
407,kaeo,-35.1,173.7833,22.84,69,78,1.93,NZ,1674098185
408,trincomalee,8.5711,81.2335,25.9,62,13,5.41,LK,1674098185
409,half moon bay,37.4636,-122.4286,12.57,82,100,4.63,US,1674097916
410,zhangye,38.9342,100.4517,-9.53,53,16,1.46,CN,1674098187
411,kwinana,-32.25,115.7667,31.2,31,79,1.34,AU,1674098187
412,dhidhdhoo,6.8833,73.1,27.25,72,18,8.62,MV,1674098042
413,sao joao da barra,-21.6403,-41.0511,23.61,89,0,3.91,BR,1674098189
414,kharp,66.8014,65.8081,-13.46,89,11,4.2,RU,1674098059
415,almeirim,-1.5233,-52.5817,21.71,99,100,0.46,BR,1674098190
416,buchanan,5.8808,-10.0467,25.35,88,46,0.99,LR,1674098190
417,altamira,-3.2033,-52.2064,21.02,99,100,0.8,BR,1674098191
418,taloqan,36.7361,69.5345,-2.94,86,100,0.81,AF,1674098191
419,maniitsoq,65.4167,-52.9,-9.73,55,100,3.23,GL,1674098192
420,axim,4.8699,-2.2405,25.67,87,98,2.43,GH,1674098192
421,constitucion,-35.3333,-72.4167,13.25,91,15,1.36,CL,1674098193
422,beyneu,45.3167,55.2,-4.72,72,0,4.42,KZ,1674098193
423,kununurra,-15.7667,128.7333,30.99,70,100,2.57,AU,1674098194
424,strezhevoy,60.7333,77.5889,-16.6,96,99,4.38,RU,1674098194
425,bud,39.447,-86.1758,6.61,97,100,7.94,US,1674098195
426,lodja,-3.4833,23.4333,20.88,91,100,1.02,CD,1674098195
427,oyek,52.5861,104.4556,-32.79,97,52,0.38,RU,1674098196
428,rusne,55.2964,21.3758,2.04,81,86,4.38,LT,1674098196
429,ayorou,14.7308,0.9174,19.42,17,5,3.97,NE,1674098197
430,vestmannaeyjar,63.4427,-20.2734,-3.58,69,26,6.2,IS,1674098197
431,lompoc,34.6391,-120.4579,9.32,88,20,0.45,US,1674098022
432,west wendover,40.7391,-114.0733,-6.39,90,92,1.52,US,1674098174
433,adrar,20.5022,-10.0711,15.64,37,99,4.04,MR,1674097954
434,buraydah,26.326,43.975,6.25,60,32,2.03,SA,1674098198
435,jalali,27.8667,78.2667,9.2,48,14,0.24,IN,1674098199
436,abu samrah,35.3029,37.1841,8.02,86,0,1.65,SY,1674098199
437,nouadhibou,20.931,-17.0347,16.99,77,29,9.26,MR,1674098200
438,kautokeino,69.0125,23.0412,-3.53,96,100,7.53,NO,1674098200
439,vanimo,-2.6741,141.3028,29.06,65,91,3.53,PG,1674098201
440,cherskiy,68.75,161.3,-43.02,99,91,1.52,RU,1674098026
441,dekar,-21.5333,21.9333,19.79,79,76,2.47,BW,1674098201
442,mocuba,-16.8392,36.9856,21.9,98,96,1.12,MZ,1674098202
443,najran,17.4924,44.1277,9.36,80,3,0.79,SA,1674098202
444,ngara,-2.5122,30.6558,11.65,95,36,0.89,TZ,1674098203
445,puerto baquerizo moreno,-0.9,-89.6,24.24,80,100,2.62,EC,1674098203
446,santa marta,11.2408,-74.199,27.72,71,52,5.81,CO,1674098204
447,megion,61.0296,76.1136,-11.99,99,74,4.49,RU,1674098126
448,peniche,39.3558,-9.3811,6.27,60,75,7.13,PT,1674098046
449,ambanja,-13.6833,48.45,22.76,96,100,5.76,MG,1674098205
450,fairbanks,64.8378,-147.7164,-26.02,78,20,0.0,US,1674098206
451,sobolevo,54.4299,31.8996,4.27,91,93,8.11,RU,1674098206
452,anadyr,64.75,177.4833,-27.72,76,75,5.0,RU,1674098207
453,verkhoyansk,67.5447,133.385,-41.82,98,100,0.67,RU,1674098207
454,waingapu,-9.6567,120.2641,29.7,66,96,3.71,ID,1674098208
455,ilabaya,-17.4208,-70.5133,18.64,73,61,0.42,PE,1674098208
456,saint-joseph,-21.3667,55.6167,28.04,86,92,5.63,RE,1674098209
457,maldonado,-34.6667,-54.9167,21.66,85,100,4.81,UY,1674098209
458,sarakhs,36.5449,61.1577,-4.8,76,11,1.62,IR,1674098209
459,sabinas,27.85,-101.1167,17.62,33,63,4.52,MX,1674098210
460,zonguldak,41.25,31.8333,6.13,70,10,2.82,TR,1674098210
461,fort nelson,58.8053,-122.7002,-15.03,91,75,2.06,CA,1674098211
462,don sak,9.3168,99.6918,30.94,67,49,4.44,TH,1674098211
463,algiers,36.7525,3.042,5.9,76,20,2.57,DZ,1674098100
464,kupang,-10.1667,123.5833,29.32,79,75,3.6,ID,1674098212
465,primero de enero,21.9469,-78.4283,19.68,81,2,3.17,CU,1674098213
466,namtsy,62.7161,129.6658,-45.46,95,98,1.2,RU,1674098213
467,kalaleh,37.3807,55.4916,0.78,75,40,0.0,IR,1674098213
468,ternate,0.8,127.4,28.8,70,79,3.14,ID,1674098214
469,fairview,40.8126,-73.999,8.01,65,0,4.12,US,1674098214
470,kologriv,58.8275,44.3178,-6.16,91,64,5.21,RU,1674098215
471,lagos,6.5833,3.75,26.18,88,7,0.76,NG,1674098208
472,svetlogorsk,52.6333,29.7333,3.42,88,73,4.22,BY,1674098215
473,merauke,-8.4667,140.3333,29.08,73,100,7.12,ID,1674098216
474,mitu,1.1983,-70.1733,21.51,93,79,0.55,CO,1674098216
475,tucurui,-3.7661,-49.6725,21.68,98,100,1.2,BR,1674098217
476,haines junction,60.7522,-137.5108,-16.27,100,91,0.64,CA,1674098084
477,herat,34.5,62.0,-1.01,69,12,0.99,AF,1674098218
478,acapulco,16.8634,-99.8901,24.9,69,20,2.57,MX,1674098218
479,taoudenni,22.6783,-3.9836,17.67,29,99,3.96,ML,1674098218
480,broome,42.2506,-75.833,3.34,88,100,4.63,US,1674098219
481,roura,4.7263,-52.3274,22.95,100,75,2.57,GF,1674098219
482,bangkok,13.75,100.5167,28.85,60,23,0.9,TH,1674098220
483,noyon,49.5833,3.0,-1.64,92,13,2.36,FR,1674098220
484,meulaboh,4.1363,96.1285,26.55,65,92,0.64,ID,1674098193
485,tahe,52.3333,124.7333,-28.03,85,100,2.46,CN,1674098221
486,cabinda,-5.55,12.2,25.48,89,98,2.55,AO,1674098222
487,bambanglipuro,-7.95,110.2833,27.97,71,100,2.41,ID,1674098222
488,boguchany,58.3814,97.4531,-37.05,97,100,0.96,RU,1674098223
489,yokadouma,3.5167,15.05,19.41,42,87,1.06,CM,1674098223
490,mont-de-marsan,44.0,-0.6667,3.77,97,75,2.57,FR,1674098224
491,marawi,7.9986,124.2928,26.02,71,42,2.3,PH,1674098101
492,charleston,32.7766,-79.9309,16.27,96,100,2.57,US,1674098194
493,misratah,32.3754,15.0925,15.34,32,0,7.0,LY,1674098225
494,verkhoturye,58.8627,60.8054,-6.17,86,99,3.92,RU,1674098225
495,linkoping,58.4109,15.6216,-0.66,94,93,3.09,SE,1674098226
496,cody,44.5263,-109.0565,-0.88,40,0,6.69,US,1674098227
497,manali,13.1667,80.2667,25.05,65,54,1.41,IN,1674098228
498,crowley,30.2141,-92.3746,22.04,91,72,4.38,US,1674098228
499,port-cartier,50.0334,-66.8654,0.42,79,100,4.17,CA,1674098229
500,turan,16.0678,108.2208,21.99,68,75,0.0,VN,1674098229
501,amalapuram,16.5833,82.0167,22.71,75,45,0.9,IN,1674098230
502,mikuni,36.2171,136.1519,8.95,65,39,5.61,JP,1674098230
503,manzhouli,49.6,117.4333,-22.06,92,96,6.63,CN,1674098231
504,zapresic,45.8564,15.8078,4.96,92,100,3.37,HR,1674098232
505,samana,19.2056,-69.3369,22.21,69,46,3.01,DO,1674098232
506,vryburg,-26.9566,24.7284,20.92,53,15,3.51,ZA,1674098233
507,vredendal,-31.6683,18.5012,19.43,86,98,0.55,ZA,1674098233
508,rocha,-34.4833,-54.3333,19.57,88,100,3.15,UY,1674098234
509,samokov,42.3333,23.55,13.28,66,2,5.25,BG,1674098234
510,kaya,13.0917,-1.0844,20.0,16,2,3.92,BF,1674098235
511,patiya,22.2931,91.9762,16.97,55,0,4.63,BD,1674098235
512,jiazi,22.8779,116.067,16.26,59,1,3.9,CN,1674098236
513,brae,60.3964,-1.353,3.88,76,100,11.17,GB,1674098212
514,coos bay,43.3665,-124.2179,6.11,97,100,2.06,US,1674098124
515,salym,60.0625,71.4789,-16.73,99,78,2.02,RU,1674098237
516,bardiyah,31.7561,25.0865,12.96,65,3,5.18,LY,1674098238
517,shemursha,54.8866,47.5189,-12.17,91,97,4.32,RU,1674098238
518,newport,51.5877,-2.9984,1.49,91,100,2.64,GB,1674098154
519,tessalit,20.1986,1.0114,17.73,17,97,1.19,ML,1674098239
520,ntoum,0.3833,9.7833,24.44,92,88,0.55,GA,1674098239
521,celestun,20.8667,-90.4,24.11,71,69,3.41,MX,1674098240
522,debre tabor,11.85,38.0167,10.11,57,78,1.76,ET,1674098240
523,mount gambier,-37.8333,140.7667,18.27,40,10,5.87,AU,1674098241
524,kaabong,3.4836,34.1492,20.06,33,26,4.24,UG,1674098241
525,klaksvik,62.2266,-6.589,3.51,80,100,12.69,FO,1674098051
526,hambantota,6.1241,81.1185,25.09,64,72,7.5,LK,1674098242
527,rio verde de mato grosso,-18.9181,-54.8442,24.4,75,77,1.64,BR,1674098243
528,pozo colorado,-23.4923,-58.7972,26.32,71,70,1.9,PY,1674098243
529,traralgon,-38.1833,146.5333,21.93,29,34,2.44,AU,1674098244
530,sergeyevka,53.88,67.4158,-19.21,81,3,3.18,KZ,1674098245
531,sarangani,5.4033,125.4636,27.56,79,56,7.46,PH,1674098245
532,corinto,37.9407,22.9573,13.83,82,98,3.19,GR,1674098246
533,diplo,24.4667,69.584,15.57,16,76,3.29,PK,1674098246
534,moscow,55.7522,37.6156,1.29,98,100,7.73,RU,1674097718
535,koygorodok,60.445,50.9968,-9.68,93,23,3.65,RU,1674098247
536,sangerhausen,51.4667,11.3,-1.36,82,21,3.75,DE,1674098211
537,bengkulu,-3.8004,102.2655,25.31,83,99,2.39,ID,1674097988
538,warri,5.5167,5.75,24.94,88,43,1.28,NG,1674098248
539,mirnyy,62.5353,113.9611,-46.54,63,76,0.89,RU,1674098248
540,naryan-mar,67.6713,53.087,-12.57,96,99,4.17,RU,1674098178
541,pochutla,15.7432,-96.4661,24.9,87,26,1.67,MX,1674098249
542,marsa matruh,31.3525,27.2453,13.64,76,0,4.75,EG,1674098250
543,ciudad bolivar,8.1222,-63.5497,25.11,69,74,5.61,VE,1674098250
544,borogontsy,62.6683,131.1683,-45.65,96,97,0.75,RU,1674098251
545,stromness,58.965,-3.296,4.93,73,100,9.39,GB,1674098243
546,key west,24.5557,-81.7826,23.0,84,0,4.63,US,1674098066
547,amuntai,-2.4177,115.2494,28.94,74,99,1.02,ID,1674098252
548,skjervoy,70.0311,20.9714,-3.0,67,100,5.87,NO,1674098252
549,pervouralsk,56.9053,59.9436,-12.93,74,80,2.9,RU,1674098253
550,bantogon,6.5333,124.0333,27.55,74,100,2.3,PH,1674098253
551,santiago del estero,-27.7951,-64.2615,28.63,49,4,0.61,AR,1674098254
552,rawson,-43.3002,-65.1023,22.07,68,12,6.04,AR,1674098254
553,kartuzy,54.3342,18.1974,2.44,93,40,3.6,PL,1674098255
554,mamallapuram,12.6264,80.1722,25.03,65,11,2.11,IN,1674098255
555,the pas,53.8251,-101.2541,-14.99,85,0,4.63,CA,1674098220
556,sur,22.5667,59.5289,21.34,73,85,6.06,OM,1674098256
557,oranjestad,12.524,-70.027,26.06,84,0,0.89,AW,1674098079
558,albury,-36.0833,146.9167,25.74,94,0,3.58,AU,1674098187
559,kruisfontein,-34.0033,24.7314,21.6,91,67,4.88,ZA,1674098231
560,seoul,37.5683,126.9778,1.76,48,0,3.09,KR,1674098257
561,mahabad,36.7631,45.7222,-1.37,90,12,0.66,IR,1674098258
562,saint-leu,-21.15,55.2833,28.31,100,99,0.88,RE,1674098109
563,aktash,50.3,87.7333,-18.9,93,100,1.12,RU,1674098258
564,arroio grande,-32.2375,-53.0869,19.99,82,100,3.76,BR,1674098259
